City_ID,City,Country,Lat,Lng,Max Temp,Humidity,Cloudiness,Wind Speed,Current Description
0,Ukiah,US,39.1502,-123.2078,52.43,84,100,5.75,overcast clouds
1,Norman Wells,CA,65.282,-126.8329,44.64,49,20,8.05,few clouds
2,Atuona,PF,-9.8,-139.0333,77.97,82,100,14.09,light rain
3,Hilo,US,19.7297,-155.09,71.28,92,40,5.75,light rain
4,Souillac,MU,-20.5167,57.5167,79.18,83,40,5.75,scattered clouds
5,Rikitea,PF,-23.1203,-134.9692,76.64,73,100,8.7,overcast clouds
6,Ribeira Grande,PT,38.5167,-28.7,66.6,72,40,5.75,scattered clouds
7,Fortuna,US,40.5982,-124.1573,47.91,95,75,6.91,broken clouds
8,Albany,US,42.6001,-73.9662,53.38,86,92,3.0,overcast clouds
9,Roald,NO,62.5833,6.1333,44.91,87,75,11.5,light rain
10,Akdepe,TM,42.0551,59.3788,64.49,79,100,6.67,overcast clouds
11,Puerto Ayora,EC,-0.7393,-90.3518,73.74,85,36,6.49,scattered clouds
12,Punta Arenas,CL,-53.15,-70.9167,44.71,70,75,21.85,broken clouds
13,Ushuaia,AR,-54.8,-68.3,46.06,53,75,4.61,broken clouds
14,Kampong Thum,KH,12.7111,104.8887,75.43,97,100,5.19,light rain
15,Bahia Blanca,AR,-38.7196,-62.2724,52.97,60,94,3.67,overcast clouds
16,Rawson,AR,-43.3002,-65.1023,54.79,54,43,10.22,scattered clouds
17,Portland,US,45.5234,-122.6762,48.24,89,100,15.01,overcast clouds
18,Nikolskoye,RU,59.7035,30.7861,55.29,44,100,8.25,overcast clouds
19,Severo-Kurilsk,RU,50.6789,156.125,34.21,86,100,3.42,overcast clouds
20,Bluff,NZ,-46.6,168.3333,47.8,80,82,9.06,broken clouds
21,Barrow,US,71.2906,-156.7887,15.82,86,100,9.22,overcast clouds
22,Vinukonda,IN,16.05,79.75,88.2,63,100,17.85,overcast clouds
23,Pacific Grove,US,36.6177,-121.9166,50.34,86,90,17.0,overcast clouds
24,Ilulissat,GL,69.2167,-51.1,26.62,50,40,2.3,scattered clouds
25,Wakkanai,JP,45.4094,141.6739,41.99,87,73,7.94,moderate rain
26,Avarua,CK,-21.2078,-159.775,80.65,83,75,10.36,broken clouds
27,Jamestown,US,42.097,-79.2353,51.03,91,100,12.66,overcast clouds
28,Longyearbyen,SJ,78.2186,15.6401,12.04,57,40,3.44,scattered clouds
29,Luxor,EG,25.6989,32.6421,102.25,12,0,9.22,clear sky
30,Bethel,US,41.3712,-73.414,52.48,87,100,1.99,light rain
31,Ust-Kan,RU,50.9276,84.761,48.0,87,100,6.49,overcast clouds
32,Hermanus,ZA,-34.4187,19.2345,84.79,59,45,4.14,scattered clouds
33,Penzance,GB,50.1186,-5.5371,54.72,87,40,5.75,scattered clouds
34,Lermontovka,RU,47.1453,134.3383,41.38,70,100,2.08,overcast clouds
35,Khatanga,RU,71.9667,102.5,22.68,93,98,9.08,light snow
36,Odweyne,SO,9.4092,45.064,83.07,45,90,5.97,overcast clouds
37,Vaini,TO,-21.2,-175.2,77.16,88,40,9.22,scattered clouds
38,Iqaluit,CA,63.7506,-68.5145,20.93,85,100,15.01,overcast clouds
39,San Fernando,PH,15.0286,120.6898,82.13,71,89,0.2,overcast clouds
40,Qiyang,CN,26.5911,111.8474,62.08,68,91,2.35,overcast clouds
41,Aykhal,RU,66.0,111.5,20.68,93,62,8.79,broken clouds
42,Los Llanos De Aridane,ES,28.6585,-17.9182,70.12,62,75,16.11,broken clouds
43,Ponta Do Sol,PT,32.6667,-17.1,75.0,72,0,6.02,clear sky
44,Thompson,CA,55.7435,-97.8558,19.56,73,75,12.66,broken clouds
45,Omsukchan,RU,62.5333,155.8,19.74,96,94,5.55,overcast clouds
46,Port Alfred,ZA,-33.5906,26.891,72.18,75,49,7.0,scattered clouds
47,Vestmannaeyjar,IS,63.4427,-20.2734,41.99,87,100,31.07,overcast clouds
48,Kaitangata,NZ,-46.2817,169.8464,51.93,82,99,3.47,overcast clouds
49,Kodiak,US,57.79,-152.4072,38.71,87,100,26.46,light rain
50,Clyde River,CA,70.4692,-68.5914,8.83,78,75,10.36,broken clouds
51,Tuktoyaktuk,CA,69.4541,-133.0374,30.2,86,40,8.05,scattered clouds
52,Richards Bay,ZA,-28.783,32.0377,70.93,71,4,6.89,clear sky
53,Chokurdakh,RU,70.6333,147.9167,2.19,100,80,3.27,broken clouds
54,Marawi,PH,7.9986,124.2928,70.72,95,100,0.94,moderate rain
55,Takoradi,GH,4.8845,-1.7554,86.13,67,100,9.78,overcast clouds
56,Husavik,IS,66.0449,-17.3389,34.05,55,80,5.55,broken clouds
57,Bow Island,CA,49.8668,-111.3684,49.21,75,90,17.27,overcast clouds
58,Fort Nelson,CA,58.8053,-122.7002,36.99,81,75,8.05,broken clouds
59,Dzaoudzi,YT,-12.7887,45.2699,84.09,70,0,20.71,clear sky
60,Busselton,AU,-33.65,115.3333,59.85,72,60,8.3,broken clouds
61,Esperance,AU,-33.8667,121.9,60.64,75,100,16.67,overcast clouds
62,Kruisfontein,ZA,-34.0033,24.7314,73.69,45,50,9.6,scattered clouds
63,Zhenlai,CN,45.8495,123.2973,59.29,25,100,22.79,overcast clouds
64,Buchanan,LR,5.8808,-10.0467,85.3,73,88,7.61,light rain
65,Yellowknife,CA,62.456,-114.3525,32.56,64,20,11.5,few clouds
66,Gazanjyk,TM,39.2446,55.5154,69.13,59,100,4.43,overcast clouds
67,Mahebourg,MU,-20.4081,57.7,80.26,83,40,5.75,scattered clouds
68,New Norfolk,AU,-42.7826,147.0587,59.92,73,100,1.01,overcast clouds
69,Akyab,MM,20.15,92.9,83.7,72,2,5.46,clear sky
70,Sorsk,RU,54.0033,90.2467,56.41,72,52,17.25,broken clouds
71,Hofn,IS,64.2539,-15.2082,35.62,75,100,6.91,overcast clouds
72,Wanning,CN,18.8003,110.3967,67.14,93,100,13.96,overcast clouds
73,Dingle,PH,10.9995,122.6711,78.51,68,100,6.55,overcast clouds
74,Lebu,CL,-37.6167,-73.65,53.53,82,6,14.67,clear sky
75,Werda,BW,-25.2667,23.2833,76.44,29,0,6.42,clear sky
76,Avera,US,33.194,-82.5271,75.38,74,79,5.64,broken clouds
77,Kimbe,PG,-5.5502,150.1429,76.24,93,75,3.4,broken clouds
78,Cape Town,ZA,-33.9258,18.4232,79.21,37,0,9.22,clear sky
79,Ambovombe,MG,-25.1667,46.0833,71.55,66,40,8.95,scattered clouds
80,Hosszupalyi,HU,47.393,21.7328,69.8,40,0,10.36,clear sky
81,Charyshskoye,RU,51.3978,83.5598,58.44,72,100,3.15,overcast clouds
82,Koslan,RU,63.4564,48.8989,38.82,69,100,7.85,overcast clouds
83,Hasaki,JP,35.7333,140.8333,54.0,64,100,4.79,light rain
84,San Cristobal,VE,7.7669,-72.225,77.18,78,100,6.38,overcast clouds
85,Yumbe,UG,3.4651,31.2469,72.81,69,87,7.45,overcast clouds
86,Talnakh,RU,69.4865,88.3972,24.21,96,100,1.5,overcast clouds
87,Mount Isa,AU,-20.7333,139.5,74.97,60,42,8.05,scattered clouds
88,Arraial Do Cabo,BR,-22.9661,-42.0278,82.36,78,0,11.5,clear sky
89,Kapaa,US,22.0752,-159.319,71.92,92,75,14.97,light rain
90,Tiksi,RU,71.6872,128.8694,2.03,98,17,6.02,few clouds
91,Dikson,RU,73.5069,80.5464,14.72,91,100,13.6,overcast clouds
92,Gigmoto,PH,13.7796,124.39,78.91,81,100,5.75,overcast clouds
93,Mataura,NZ,-46.1927,168.8643,47.48,90,34,2.84,scattered clouds
94,Tura,IN,25.5198,90.2201,74.03,85,16,4.18,few clouds
95,Port Elizabeth,ZA,-33.918,25.5701,72.32,75,0,17.27,clear sky
96,Natal,BR,-5.795,-35.2094,86.22,79,75,12.66,broken clouds
97,Namibe,AO,-15.1961,12.1522,78.93,65,3,12.75,clear sky
98,Diego De Almagro,CL,-26.3667,-70.05,64.29,40,51,1.48,broken clouds
99,Geraldton,AU,-28.7667,114.6,64.81,77,0,12.66,clear sky
100,East London,ZA,-33.0153,27.9116,72.54,68,0,13.8,clear sky
101,Chuy,UY,-33.6971,-53.4616,62.02,54,100,10.58,overcast clouds
102,Haines Junction,CA,60.7522,-137.5108,35.55,75,78,8.05,broken clouds
103,Korcula,HR,42.9622,17.1369,57.81,71,100,3.85,overcast clouds
104,Usinsk,RU,65.9939,57.5281,29.86,77,100,10.67,overcast clouds
105,Saskylakh,RU,71.9167,114.0833,6.66,90,35,6.78,scattered clouds
106,Bom Jardim,BR,-7.7958,-35.5872,85.1,59,63,11.83,broken clouds
107,Korla,CN,41.7597,86.1469,73.31,15,100,11.45,overcast clouds
108,Cabo San Lucas,MX,22.8909,-109.9124,69.1,44,61,1.99,broken clouds
109,Pisco,PE,-13.7,-76.2167,66.25,77,0,2.3,clear sky
110,Karachi,PK,24.9056,67.0822,85.82,58,0,23.02,dust
111,Beaverlodge,CA,55.2166,-119.4361,34.95,97,100,6.76,overcast clouds
112,Saint George,US,37.1041,-113.5841,56.25,48,0,9.22,clear sky
113,Krasnoselkup,RU,65.7,82.4667,30.69,90,100,4.97,overcast clouds
114,Hobart,AU,-42.8794,147.3294,60.22,74,75,6.91,broken clouds
115,Tazmalt,DZ,36.3868,4.3989,68.5,57,100,3.42,light rain
116,Xining,CN,36.6167,101.7667,47.12,38,0,2.71,clear sky
117,Kropotkin,RU,45.4375,40.5756,46.54,95,100,13.42,overcast clouds
118,Saint-Philippe,RE,-21.3585,55.7679,80.19,80,32,6.96,scattered clouds
119,Sur,OM,22.5667,59.5289,91.06,34,0,4.29,clear sky
120,Muravlenko,RU,63.7898,74.523,27.1,92,99,6.93,overcast clouds
121,Faratsiho,MG,-19.4,46.95,63.28,72,94,1.25,overcast clouds
122,Bredasdorp,ZA,-34.5322,20.0403,74.28,48,40,8.63,scattered clouds
123,Laguna,US,38.421,-121.4238,54.01,76,0,10.36,clear sky
124,Jablanica,BA,43.6603,17.7617,57.33,92,100,4.05,overcast clouds
125,Manitouwadge,CA,49.1215,-85.8403,41.34,100,100,2.08,overcast clouds
126,Pallipattu,IN,13.3386,79.4449,92.55,38,100,5.17,overcast clouds
127,Komsomolskiy,UZ,40.4272,71.7189,83.12,30,100,20.71,overcast clouds
128,Athens,GR,37.9795,23.7162,62.28,75,100,12.66,overcast clouds
129,Manuk Mangkaw,PH,4.8,119.85,83.91,69,17,0.98,few clouds
130,Nanortalik,GL,60.1432,-45.2371,35.6,94,100,5.7,light rain
131,Jaggayyapeta,IN,16.9,80.1,85.98,50,43,17.25,scattered clouds
132,Coihaique,CL,-45.5752,-72.0662,43.41,87,75,4.61,broken clouds
133,Butaritari,KI,3.0707,172.7902,81.23,79,93,12.75,light rain
134,Torbay,CA,47.6666,-52.7314,43.29,96,100,9.22,light intensity drizzle
135,Vestmanna,FO,62.1564,-7.1664,40.12,56,40,11.5,scattered clouds
136,Tevaitoa,PF,-16.7833,-151.5,80.1,76,100,8.75,overcast clouds
137,Ashland,US,40.8167,-82.2665,53.56,74,12,10.76,few clouds
138,Ormara,PK,25.2088,64.6357,83.64,69,0,21.16,clear sky
139,Jacareacanga,BR,-6.2222,-57.7528,80.53,90,60,0.69,broken clouds
140,Benemerito De Las Americas,MX,16.5167,-90.6439,77.47,88,58,2.51,broken clouds
141,Cherskiy,RU,68.75,161.3,26.85,95,100,4.25,overcast clouds
142,Umm Kaddadah,SD,13.6017,26.6876,104.65,6,29,14.43,scattered clouds
143,Coahuayana,MX,18.7333,-103.6833,76.39,28,100,0.43,overcast clouds
144,Mar Del Plata,AR,-38.0023,-57.5575,51.87,71,100,8.05,overcast clouds
145,Bengkulu,ID,-3.8004,102.2655,78.26,88,100,3.0,moderate rain
146,Cidreira,BR,-30.1811,-50.2056,63.5,75,100,4.61,light rain
147,Lensk,RU,60.7253,114.9278,17.74,92,15,2.8,few clouds
148,Ligayan,PH,4.6533,119.4706,84.25,69,35,1.7,scattered clouds
149,Mgachi,RU,51.05,142.2667,33.58,97,100,3.98,overcast clouds
150,Torrington,US,41.8007,-73.1212,54.43,77,100,3.0,overcast clouds
151,Glasgow,GB,55.8652,-4.2576,59.2,72,75,12.66,broken clouds
152,Castro,BR,-24.7911,-50.0119,72.1,66,32,5.99,scattered clouds
153,Bilara,IN,26.1792,73.7056,97.95,12,15,12.71,few clouds
154,Caravelas,BR,-17.7125,-39.2481,84.04,58,66,6.11,broken clouds
155,Stephenville,US,32.2207,-98.2023,74.16,77,0,11.5,clear sky
156,Kieta,PG,-6.2167,155.6333,79.47,82,22,1.63,few clouds
157,Luena,AO,-11.7833,19.9167,80.78,61,20,9.22,few clouds
158,Bandarbeyla,SO,9.4942,50.8122,86.38,73,54,16.51,broken clouds
159,Coffs Harbour,AU,-30.3,153.1333,59.13,88,40,1.14,scattered clouds
160,Loukhi,RU,66.0764,33.0381,35.85,98,100,11.5,light rain
161,Petropavlovsk-Kamchatskiy,RU,53.0452,158.6483,27.19,80,0,2.24,clear sky
162,Sulangan,PH,11.1373,123.7228,83.86,75,95,10.94,overcast clouds
163,Gorin,RU,51.1983,136.6669,29.93,95,60,1.95,broken clouds
164,Enshi,CN,30.3,109.4833,58.06,75,84,1.92,broken clouds
165,Kaduy,RU,59.2,37.15,50.04,55,90,9.46,overcast clouds
166,Sitka,US,57.0531,-135.33,42.69,87,100,4.61,light rain
167,Pangody,RU,65.85,74.4859,23.18,88,100,5.37,overcast clouds
168,Piacabucu,BR,-10.4056,-36.4344,81.25,77,60,10.89,broken clouds
169,Lagoa,PT,39.05,-27.9833,61.07,79,10,4.03,clear sky
170,Banjar,ID,-8.19,114.9675,78.93,90,100,2.71,overcast clouds
171,Ilhabela,BR,-23.7781,-45.3581,79.0,75,9,4.18,clear sky
172,Mogadishu,SO,2.0371,45.3438,89.47,62,20,14.97,few clouds
173,Cuamba,MZ,-14.8031,36.5372,75.24,59,19,7.99,few clouds
174,Praia Da Vitoria,PT,38.7333,-27.0667,66.76,77,75,6.11,broken clouds
175,Kota Kinabalu,MY,5.9749,116.0724,82.38,83,20,2.3,few clouds
176,Tasiilaq,GL,65.6145,-37.6368,33.96,65,100,3.74,overcast clouds
177,Roseto Degli Abruzzi,IT,42.6664,14.0227,66.9,72,20,10.36,few clouds
178,Smirnykh,RU,49.75,142.8333,32.23,99,100,6.51,snow
179,Constitucion,CL,-35.3333,-72.4167,55.81,67,0,7.54,clear sky
180,Lagos,NG,6.5833,3.75,89.92,59,100,8.34,overcast clouds
181,Praia,CV,14.9215,-23.5087,84.74,42,20,17.27,few clouds
182,Pauini,BR,-7.7136,-66.9764,74.77,96,100,1.83,overcast clouds
183,Mineral Wells,US,32.8085,-98.1128,75.22,83,20,8.05,few clouds
184,Wajir,KE,1.7471,40.0573,89.56,51,75,5.75,broken clouds
185,Kudahuvadhoo,MV,2.6708,72.8944,85.51,76,100,19.71,overcast clouds
186,Labuan,MY,5.2767,115.2417,82.76,78,20,2.3,few clouds
187,Georgetown,MY,5.4112,100.3354,82.33,99,40,5.99,thunderstorm with light rain
188,Narsaq,GL,60.9167,-46.05,43.02,90,100,2.39,light rain
189,Homer,US,59.6425,-151.5483,39.09,83,100,8.05,light rain
190,Harper,LR,4.375,-7.7169,85.53,70,35,7.4,light rain
191,Port Lincoln,AU,-34.7333,135.8667,59.47,78,3,7.49,clear sky
192,San-Pedro,CI,4.7485,-6.6363,86.34,67,99,9.44,overcast clouds
193,Dunmore Town,BS,25.5,-76.65,75.6,73,100,17.74,overcast clouds
194,Kelvington,CA,52.1667,-103.5343,34.68,79,89,10.22,overcast clouds
195,Muroto,JP,33.2833,134.15,60.22,51,13,9.35,few clouds
196,Kindu,CD,-2.95,25.95,85.44,52,55,1.86,broken clouds
197,Olafsvik,IS,64.8945,-23.7142,38.23,64,57,13.71,broken clouds
198,Poum,NC,-20.2333,164.0167,77.45,82,0,2.3,clear sky
199,Vilhena,BR,-12.7406,-60.1458,82.62,61,0,9.22,clear sky
200,Bata,GQ,1.8639,9.7658,77.49,90,100,4.92,moderate rain
201,Moron,AR,-34.6534,-58.6198,57.0,67,65,7.43,broken clouds
202,Beloha,MG,-25.1667,45.05,72.25,61,47,9.78,scattered clouds
203,Lenine,UA,45.2986,35.7771,55.76,62,4,16.04,clear sky
204,Provideniya,RU,64.3833,-173.3,19.06,55,8,5.61,clear sky
205,Ayan,RU,56.45,138.1667,29.73,98,100,4.32,light snow
206,Kisszallas,HU,46.2801,19.4895,64.98,48,100,8.88,overcast clouds
207,Juegang,CN,32.3174,121.1855,57.0,85,32,10.27,scattered clouds
208,Hovd,MN,48.0056,91.6419,64.72,17,100,10.78,overcast clouds
209,Bongandanga,CD,1.5,21.05,92.86,36,44,4.5,scattered clouds
210,Beringovskiy,RU,63.05,179.3167,3.76,89,17,6.06,few clouds
211,Port Moresby,PG,-9.4431,147.1797,78.22,89,40,3.44,haze
212,Bambous Virieux,MU,-20.3428,57.7575,79.21,83,40,5.75,scattered clouds
213,Sao Francisco,BR,-15.9486,-44.8644,89.19,34,63,4.32,broken clouds
214,Lisakovsk,KZ,52.5369,62.4936,50.2,24,0,10.49,clear sky
215,Galesong,ID,-5.3166,119.3661,80.62,76,12,6.46,few clouds
216,Calabozo,VE,8.9242,-67.4293,86.52,49,2,10.42,clear sky
217,Katsuura,JP,35.1333,140.3,60.31,66,97,21.21,overcast clouds
218,Shaunavon,CA,49.6501,-108.4181,38.98,66,98,16.58,overcast clouds
219,Parrsboro,CA,45.4001,-64.332,46.42,83,100,10.69,overcast clouds
220,Mayskiy,RU,47.6931,40.1025,60.21,39,92,8.79,overcast clouds
221,Samana,DO,19.2056,-69.3369,78.76,88,75,0.0,broken clouds
222,Pata,PH,17.7152,121.5018,76.17,90,100,3.2,light rain
223,Lorengau,PG,-2.0226,147.2712,80.91,77,84,4.12,broken clouds
224,Rocky Mountain House,CA,52.3668,-114.9188,35.71,100,100,6.91,overcast clouds
225,Sabinas,MX,27.85,-101.1167,74.68,87,92,5.12,overcast clouds
226,Ambilobe,MG,-13.2,49.05,79.36,81,55,1.88,light rain
227,Atasu,KZ,48.6814,71.6433,64.44,45,95,13.33,overcast clouds
228,Bereznik,RU,62.8551,42.7072,42.71,80,100,9.42,overcast clouds
229,Shawnee,US,39.05,-95.7669,53.19,77,0,12.66,clear sky
230,The Valley,AI,18.217,-63.0578,83.1,78,40,13.8,scattered clouds
231,Orsova,RO,44.7253,22.3961,65.66,41,100,13.6,overcast clouds
232,Broome,US,42.2506,-75.833,56.46,86,100,5.01,mist
233,Vila Franca Do Campo,PT,37.7167,-25.4333,64.81,70,29,4.0,scattered clouds
234,Camacha,PT,33.0833,-16.3333,63.82,77,75,19.57,light intensity drizzle
235,Refojos De Basto,PT,41.5132,-7.9952,66.67,40,32,7.52,scattered clouds
236,Leh,IN,34.1667,77.5833,54.16,21,4,5.77,clear sky
237,Acapulco,MX,16.8634,-99.8901,81.3,50,100,3.22,overcast clouds
238,Yangambi,CD,0.8102,24.4336,79.77,59,100,1.52,overcast clouds
239,Isangel,VU,-19.55,169.2667,78.4,87,71,10.02,broken clouds
240,Kulhudhuffushi,MV,6.6221,73.07,85.48,74,100,16.37,overcast clouds
241,Luwuk,ID,-0.9516,122.7875,78.46,84,24,4.09,few clouds
242,Upernavik,GL,72.7868,-56.1549,10.0,74,40,2.84,scattered clouds
243,Asau,RO,46.4333,26.4,65.32,35,28,7.92,scattered clouds
244,Whitehorse,CA,60.7161,-135.0538,37.02,83,75,16.11,broken clouds
245,Saldanha,ZA,-33.0117,17.9442,89.65,59,100,12.91,overcast clouds
246,Kotido,UG,2.9806,34.1331,75.56,65,87,4.7,moderate rain
247,Hambantota,LK,6.1241,81.1185,86.34,84,75,6.91,broken clouds
248,Muromtsevo,RU,56.3724,75.2418,40.87,73,100,15.03,overcast clouds
249,Nakhon Phanom,TH,17.3333,104.4167,66.0,57,99,7.85,overcast clouds
250,Qaanaaq,GL,77.484,-69.3632,15.96,59,100,3.94,overcast clouds
251,Kavieng,PG,-2.5744,150.7967,82.45,77,100,4.0,moderate rain
252,Safaga,EG,26.7292,33.9365,82.9,39,6,4.85,clear sky
253,Den Helder,NL,52.9599,4.7593,60.94,47,7,7.0,clear sky
254,Rajpipla,IN,21.8667,73.5,94.32,39,0,16.46,clear sky
255,Kyshtovka,RU,56.555,76.6271,44.82,76,89,16.64,overcast clouds
256,Aklavik,CA,68.2191,-135.0107,26.89,97,100,3.02,overcast clouds
257,Zhanaozen,KZ,43.3,52.8,77.0,20,84,11.43,broken clouds
258,Tambacounda,SN,13.7539,-13.7586,107.85,7,13,5.95,few clouds
259,Parkes,AU,-33.1333,148.1833,53.35,86,0,5.32,clear sky
260,Letterkenny,IE,54.95,-7.7333,55.33,70,98,4.88,overcast clouds
261,Xai-Xai,MZ,-25.0519,33.6442,72.41,78,27,10.89,light rain
262,Iwanai,JP,42.9744,140.5089,42.26,90,99,12.64,light rain
263,Lubao,PH,14.9167,120.55,84.27,73,95,1.23,overcast clouds
264,Najran,SA,17.4924,44.1277,95.65,12,2,14.74,clear sky
265,Half Moon Bay,US,37.4636,-122.4286,52.75,85,100,25.32,overcast clouds
266,Ostashkov,RU,57.1467,33.1075,52.05,50,94,7.56,overcast clouds
267,Bolitoc,PH,15.7395,119.8769,81.64,78,60,2.93,broken clouds
268,Adrar,MR,20.5022,-10.0711,97.32,8,0,5.48,clear sky
269,Erzin,TR,36.9559,36.2,67.59,76,93,7.7,overcast clouds
270,Carnarvon,AU,-24.8667,113.6333,71.67,68,0,14.97,clear sky
271,Mont-De-Marsan,FR,44.0,-0.6667,67.6,64,75,8.05,broken clouds
272,Nigran,ES,42.1415,-8.8066,68.04,42,0,12.66,clear sky
273,Mount Gambier,AU,-37.8333,140.7667,55.31,88,75,9.22,broken clouds
274,Salto,UY,-31.3833,-57.9667,53.87,82,0,11.99,clear sky
275,Vanimo,PG,-2.6741,141.3028,78.57,86,79,2.28,broken clouds
276,Port Shepstone,ZA,-30.7414,30.455,69.46,69,0,5.14,clear sky
277,Henties Bay,NA,-22.116,14.2845,69.98,60,3,11.1,clear sky
278,Tocopilla,CL,-22.092,-70.1979,66.7,63,6,4.16,clear sky
279,Lyantonde,UG,-0.4031,31.1572,74.14,71,86,5.37,light rain
280,Kunya,NG,12.2233,8.5325,104.16,24,0,8.05,clear sky
281,Port Hardy,CA,50.6996,-127.4199,46.58,93,100,6.91,overcast clouds
282,Jutai,BR,-5.1833,-68.9,74.32,97,99,2.86,overcast clouds
283,Tommot,RU,58.9564,126.2925,21.18,90,50,4.29,scattered clouds
284,Savannah Bight,HN,16.45,-85.85,81.66,77,71,15.88,broken clouds
285,Oktyabrskiy,RU,54.4815,53.471,51.58,42,52,8.37,broken clouds
286,Urusha,RU,54.05,122.9,34.75,63,100,8.41,overcast clouds
287,Urumqi,CN,43.801,87.6005,77.95,12,0,15.66,clear sky
288,Sabzevar,IR,36.2126,57.6819,72.68,43,40,20.71,shower rain
289,Svetlaya,RU,46.5389,138.3297,36.3,92,100,8.01,overcast clouds
290,Hamilton,US,39.1834,-84.5333,61.75,65,20,4.61,few clouds
291,Saint-Joseph,RE,-21.3667,55.6167,79.18,81,24,5.99,few clouds
292,Vao,NC,-22.6667,167.4833,75.65,87,49,8.5,scattered clouds
293,Aleksandrovka,UA,46.8383,32.7612,60.91,50,100,3.58,overcast clouds
294,Luderitz,NA,-26.6481,15.1594,77.13,34,0,2.24,clear sky
295,Boende,CD,-0.2167,20.8667,92.75,37,44,2.91,scattered clouds
296,Havelock,US,34.8791,-76.9013,76.98,80,20,18.41,few clouds
297,Saint Anthony,US,45.0205,-93.218,41.88,77,100,16.11,overcast clouds
298,Alofi,NU,-19.0595,-169.9187,80.49,89,100,10.36,overcast clouds
299,Nueva Guinea,NI,11.6876,-84.4562,79.18,81,84,7.94,broken clouds
300,Grand Gaube,MU,-20.0064,57.6608,79.38,73,9,3.0,clear sky
301,Faya,SA,18.3851,42.4509,75.72,50,42,12.8,light rain
302,Chateau-Gontier,FR,47.8333,-0.7,66.36,55,97,11.45,overcast clouds
303,Kitimat,CA,54.0524,-128.6534,43.18,28,100,0.74,overcast clouds
304,Lasa,IT,46.6166,10.7002,58.08,77,100,2.21,overcast clouds
305,Beidao,CN,34.5686,105.8933,53.78,52,0,4.97,clear sky
306,Hithadhoo,MV,-0.6,73.0833,85.46,75,100,17.94,overcast clouds
307,Kanigiri,IN,15.4,79.5167,94.6,43,100,15.46,overcast clouds
308,Aswan,EG,24.0934,32.907,106.9,6,0,4.61,clear sky
309,Hurghada,EG,27.2574,33.8129,93.24,18,0,5.75,clear sky
310,Dzerzhinsk,RU,56.2389,43.4631,49.82,57,40,8.95,scattered clouds
311,Ardakan,IR,32.31,54.0175,84.27,11,27,17.38,scattered clouds
312,Havre-Saint-Pierre,CA,50.2334,-63.5986,44.96,29,20,14.97,few clouds
313,Oshakati,NA,-17.7833,15.6833,96.82,21,21,7.96,few clouds
314,Moree,AU,-29.4667,149.85,60.82,67,40,10.36,scattered clouds
315,Atar,MR,20.5169,-13.0499,102.49,7,38,5.39,scattered clouds
316,Siguiri,GN,11.6667,-9.5,102.4,24,35,3.0,scattered clouds
317,Sao Filipe,CV,14.8961,-24.4956,74.1,74,2,7.74,clear sky
318,Dhaulpur,IN,26.7,77.9,101.48,13,30,7.29,scattered clouds
319,Te Anau,NZ,-45.4167,167.7167,47.97,87,56,1.52,broken clouds
320,Rantepao,ID,-2.9701,119.8978,67.89,98,74,1.99,broken clouds
321,Pevek,RU,69.7008,170.3133,1.27,97,66,2.24,broken clouds
322,Peniche,PT,39.3558,-9.3811,66.29,84,28,15.35,scattered clouds
323,Boa Vista,BR,2.8197,-60.6733,84.18,61,0,14.97,clear sky
324,San Lawrenz,MT,36.0553,14.204,67.41,78,0,19.19,clear sky
325,Rio Grande,BR,-32.035,-52.0986,57.31,61,100,7.36,overcast clouds
326,Knysna,ZA,-34.0363,23.0471,74.19,48,97,6.64,overcast clouds
327,Radyvyliv,UA,50.1299,25.2558,63.01,50,74,0.92,broken clouds
328,Kuala Lipis,MY,4.1842,102.0468,76.1,96,100,0.56,overcast clouds
329,Prince Rupert,CA,54.3161,-130.3201,44.29,100,100,3.44,light rain
330,Waipawa,NZ,-41.4122,175.5153,57.29,84,100,6.51,overcast clouds
331,Cayenne,GF,4.9333,-52.3333,84.24,20,75,9.22,broken clouds
332,Praya,CV,14.9215,-23.5087,84.74,42,20,17.27,few clouds
333,Plouzane,FR,48.3833,-4.6167,59.05,74,75,11.5,broken clouds
334,Jaruco,CU,23.0431,-82.0108,74.43,54,0,13.73,clear sky
335,Thaton,MM,16.9206,97.3714,81.5,75,100,13.18,overcast clouds
336,Lingao,CN,19.9103,109.6859,67.59,82,100,6.04,overcast clouds
337,Bilibino,RU,68.0546,166.4372,5.94,93,51,3.02,broken clouds
338,Niquelandia,BR,-14.4739,-48.4597,88.05,30,36,5.06,scattered clouds
339,Batagay,RU,67.6333,134.6333,20.44,98,99,4.74,overcast clouds
340,Byron Bay,AU,-28.65,153.6167,62.49,82,34,8.55,scattered clouds
341,College,US,64.8569,-147.8028,39.18,65,75,3.44,broken clouds
342,Okato,NZ,-39.2,173.8833,55.69,91,87,1.01,overcast clouds
343,El Sauzal,MX,31.9,-116.6833,55.42,83,8,1.97,clear sky
344,Fairbanks,US,64.8378,-147.7164,39.2,67,20,3.44,few clouds
345,Sioux Lookout,CA,50.1001,-91.917,33.87,100,100,14.97,light intensity drizzle
346,Bhinga,IN,27.7167,81.9333,84.33,45,72,8.99,broken clouds
347,Saint-Augustin,CA,51.226,-58.6502,37.92,92,100,14.92,overcast clouds
348,Oranjestad,AW,12.524,-70.027,84.15,70,40,25.32,scattered clouds
349,Karasburg,NA,-28.0167,18.75,83.05,12,0,8.28,clear sky
350,Egvekinot,RU,66.3167,-179.1667,5.2,62,97,4.23,overcast clouds
351,Groningen,NL,53.25,6.75,65.08,53,4,6.91,clear sky
352,Miraflores,MX,19.2167,-98.8083,65.03,56,100,2.04,overcast clouds
353,Mackenzie,CA,55.2999,-123.1698,39.42,93,100,2.3,mist
354,Nome,US,64.5011,-165.4064,25.16,76,69,10.63,broken clouds
355,Bulungu,CD,-4.55,18.6,85.78,59,87,0.87,overcast clouds
356,Linkou,CN,45.3,130.2833,43.79,68,100,5.68,overcast clouds
357,Sao Felix Do Xingu,BR,-6.6447,-51.995,86.92,53,100,3.06,overcast clouds
358,Mama,RU,58.3106,112.8986,25.88,80,100,5.37,overcast clouds
359,Samarai,PG,-10.6167,150.6667,81.54,78,32,7.85,scattered clouds
360,Huarmey,PE,-10.0681,-78.1522,68.05,79,97,7.34,overcast clouds
361,Porto Velho,BR,-8.7619,-63.9039,80.65,78,0,4.61,clear sky
362,Strezhevoy,RU,60.7333,77.5889,36.28,68,2,4.83,clear sky
363,Key West,US,24.5557,-81.7826,84.2,67,20,11.5,few clouds
364,Gushikawa,JP,26.3544,127.8686,63.63,94,75,5.75,heavy intensity rain
365,San Jacinto,US,33.7839,-116.9586,63.95,82,1,1.99,clear sky
366,Platonovka,RU,52.7106,41.952,54.97,36,93,6.24,overcast clouds
367,Sao Joao Da Barra,BR,-21.6403,-41.0511,84.29,55,0,6.22,clear sky
368,Micheweni,TZ,-4.9667,39.8333,81.19,77,62,17.78,light rain
369,Grand-Santi,GF,4.25,-54.3833,85.33,60,92,3.98,overcast clouds
370,Alvorada,BR,-12.48,-49.1247,89.73,38,19,3.58,few clouds
371,Shenjiamen,CN,29.9576,122.298,58.41,76,100,6.76,overcast clouds
372,Stornoway,GB,58.2093,-6.3865,52.03,80,40,12.66,scattered clouds
373,Ust-Uda,RU,54.1742,103.0304,58.57,50,100,2.42,overcast clouds
374,Sabang,ID,5.8933,95.3214,83.73,73,100,15.61,overcast clouds
375,Edea,CM,3.8,10.1333,83.52,79,97,5.3,light rain
376,Chandbali,IN,20.7833,86.7667,84.33,67,8,6.2,clear sky
377,Brigantine,US,39.4101,-74.3646,62.04,98,100,5.75,mist
378,Mananara,MG,-16.1667,49.7667,77.56,77,3,5.14,clear sky
379,Karratha,AU,-20.7377,116.8463,82.56,59,15,7.92,light rain
380,Iquique,CL,-20.2208,-70.1431,64.44,66,10,4.38,clear sky
381,Puerto Baquerizo Moreno,EC,-0.9,-89.6,71.92,90,29,7.72,scattered clouds
382,Rocha,UY,-34.4833,-54.3333,59.92,58,96,6.22,overcast clouds
383,Omboue,GA,-1.5746,9.2618,80.26,82,100,3.56,overcast clouds
384,Kabansk,RU,52.0486,106.6528,43.99,76,60,3.62,broken clouds
385,Ixtapa,MX,20.7,-105.2,71.22,71,80,1.92,broken clouds
386,Vila,PT,42.0304,-8.1588,57.7,54,19,6.87,few clouds
387,Jian,CN,27.1172,114.9793,61.63,73,63,2.66,broken clouds
388,Coari,BR,-4.085,-63.1414,76.62,96,96,1.3,overcast clouds
389,Mwinilunga,ZM,-11.7358,24.4293,73.65,51,86,6.53,overcast clouds
390,Puerto Narino,CO,-3.7703,-70.3831,72.72,99,100,2.13,overcast clouds
391,Belyy Yar,RU,53.6039,91.3903,67.89,40,0,13.42,clear sky
392,Evanston,US,42.0411,-87.6901,49.46,74,100,6.91,overcast clouds
393,Caetes,BR,-8.7731,-36.6225,78.75,62,78,8.57,broken clouds
394,Victoria,HK,22.2855,114.1577,69.85,77,100,8.99,overcast clouds
395,Tongren,CN,27.7172,109.1853,61.23,72,6,0.36,clear sky
396,Zagare,LT,56.3592,23.25,55.08,42,99,10.65,overcast clouds
397,Kongoussi,BF,13.3258,-1.5347,104.68,9,39,6.11,scattered clouds
398,Bathsheba,BB,13.2167,-59.5167,84.81,74,40,20.71,scattered clouds
399,Anchorage,US,61.2181,-149.9003,43.2,68,100,12.66,overcast clouds
400,Soderhamn,SE,61.3037,17.0592,55.96,29,67,18.52,broken clouds
401,Kenora,CA,49.8167,-94.4337,32.97,100,100,6.91,mist
402,Prachuap Khiri Khan,TH,12.2167,99.75,81.68,91,100,5.39,light rain
403,Olesnica,PL,51.2134,17.3899,70.59,42,83,2.42,broken clouds
404,Tuatapere,NZ,-46.1333,167.6833,50.4,88,23,5.59,few clouds
405,Victor Harbor,AU,-35.5667,138.6167,58.68,87,0,6.44,clear sky
406,Airai,TL,-8.9266,125.4092,60.04,82,36,3.0,scattered clouds
407,Salamiyah,SY,35.0113,37.0532,79.92,28,91,16.98,overcast clouds
408,Griffith,US,41.5284,-87.4237,50.04,73,100,8.05,overcast clouds
409,Lata,PT,40.1629,-8.3327,69.08,42,0,13.04,clear sky
410,Vernon,CA,50.2581,-119.2691,54.3,63,100,11.5,overcast clouds
411,Ostrovnoy,RU,68.0531,39.5131,34.02,89,100,13.87,overcast clouds
412,Luganville,VU,-15.5333,167.1667,77.32,88,75,7.09,broken clouds
413,Chapais,CA,49.7834,-74.8492,47.98,74,9,10.51,clear sky
414,Thohoyandou,ZA,-22.9456,30.485,72.19,37,0,7.25,clear sky
415,Yar-Sale,RU,66.8333,70.8333,24.06,82,51,9.04,broken clouds
416,Arman,RU,59.7,150.1667,30.02,91,84,1.77,broken clouds
417,Katima Mulilo,NA,-17.5,24.2667,73.76,46,100,2.71,overcast clouds
418,Flinders,AU,-34.5833,150.8552,64.38,84,14,4.0,few clouds
419,Leningradskiy,RU,69.3833,178.4167,4.69,92,100,2.62,overcast clouds
420,Port Antonio,JM,18.18,-76.4612,82.99,76,5,10.11,clear sky
421,Perbaungan,ID,3.5679,98.956,80.71,94,100,3.89,overcast clouds
422,Niltepec,MX,16.5667,-94.6167,84.22,64,23,1.3,few clouds
423,Kenai,US,60.5544,-151.2583,41.09,74,100,10.36,overcast clouds
424,Nuuk,GL,64.1835,-51.7216,32.61,80,40,4.61,scattered clouds
425,Listvyanka,RU,51.8535,104.8693,38.28,85,54,8.59,broken clouds
426,Esso,RU,55.9333,158.7,16.63,98,80,4.85,broken clouds
427,Nicoya,CR,10.1483,-85.452,81.9,72,100,4.21,overcast clouds
428,Belmonte,BR,-15.8631,-38.8828,82.24,62,29,3.74,scattered clouds
429,Broken Hill,AU,-31.95,141.4333,51.51,76,0,4.61,clear sky
430,Jiuquan,CN,39.7432,98.5174,58.78,15,0,5.66,clear sky
431,Chino Valley,US,34.7575,-112.4538,57.96,31,0,1.43,clear sky
432,Inawashiro,JP,37.5667,140.1167,41.76,89,89,3.44,overcast clouds
433,Glenwood Springs,US,39.5505,-107.3248,45.41,92,100,9.22,overcast clouds
434,Alta Floresta,BR,-9.8756,-56.0861,91.22,58,0,4.61,clear sky
435,Latehar,IN,23.75,84.5,86.5,24,30,5.55,scattered clouds
436,Batagay-Alyta,RU,67.8006,130.4114,13.93,95,100,8.63,light snow
437,Novonikolayevskiy,RU,50.9738,42.3649,58.78,28,88,2.59,overcast clouds
438,Negara,ID,-8.3151,114.6025,78.49,90,100,4.94,overcast clouds
439,Yarada,IN,17.65,83.2667,88.12,74,40,8.05,scattered clouds
440,Muros,ES,42.7762,-9.0603,62.83,54,54,14.92,broken clouds
441,Abu Kamal,SY,34.4506,40.9171,84.69,24,100,14.12,overcast clouds
442,Ducheng,CN,23.2373,111.5317,66.92,79,100,1.74,overcast clouds
443,Burlington,US,39.8835,-74.6413,59.09,89,100,5.75,overcast clouds
444,Warrington,GB,53.3925,-2.5802,61.86,74,75,10.36,broken clouds
445,Amazar,RU,53.858,120.875,34.72,48,40,9.01,scattered clouds
446,Auki,SB,-8.7676,160.7034,77.05,88,33,3.65,scattered clouds
447,Rosarito,MX,32.3333,-117.0333,59.09,76,10,3.22,clear sky
448,La Ronge,CA,55.1001,-105.2842,30.45,74,100,10.36,overcast clouds
449,Soe,ID,-9.8607,124.284,65.66,95,50,4.25,scattered clouds
450,Lompoc,US,34.6391,-120.4579,50.63,88,100,14.0,fog
451,Presidencia Roque Saenz Pena,AR,-26.7852,-60.4388,61.2,98,100,5.86,overcast clouds
452,Corning,US,42.1428,-77.0547,58.69,90,100,3.44,overcast clouds
453,Port Hedland,AU,-20.3167,118.5667,78.85,61,15,6.91,few clouds
454,Eenhana,NA,-17.4667,16.3333,84.25,21,86,10.16,overcast clouds
455,Ballinrobe,IE,53.6333,-9.2333,59.11,69,100,3.44,overcast clouds
456,Bilma,NE,18.6853,12.9164,103.87,9,18,12.08,few clouds
457,Dudinka,RU,69.4058,86.1778,24.62,97,59,2.91,broken clouds
458,Dakar,SN,14.6937,-17.4441,72.01,78,32,10.4,scattered clouds
459,Bonthe,SL,7.5264,-12.505,85.62,67,100,6.85,overcast clouds
460,Fenoarivo,MG,-18.933,47.4354,73.47,60,20,12.66,few clouds
461,Pujehun,SL,7.3581,-11.7208,91.78,53,98,6.46,overcast clouds
462,Mawlaik,MM,23.6333,94.4167,73.54,82,62,1.07,broken clouds
463,Hirara,JP,24.8,125.2833,69.1,79,100,23.87,light rain
464,Puerto Escondido,MX,15.85,-97.0667,82.53,68,98,0.27,overcast clouds
465,Paramonga,PE,-10.6667,-77.8333,66.51,82,99,6.93,overcast clouds
466,Ratnagiri,IN,16.9833,73.3,84.79,76,0,9.17,clear sky
467,Preston,GB,53.7667,-2.7167,61.63,79,100,1.01,overcast clouds
468,Bundaberg,AU,-24.85,152.35,68.29,81,75,8.05,broken clouds
469,Deputatskiy,RU,69.3,139.9,21.42,97,100,4.09,light snow
470,Illapel,CL,-31.6308,-71.1653,65.21,47,0,2.89,clear sky
471,Shiyan,CN,32.6475,110.7781,61.5,44,2,6.17,clear sky
472,Mecca,SA,21.4267,39.8261,97.88,17,0,16.13,clear sky
473,Lechinta,RO,47.0167,24.35,64.76,48,88,1.52,overcast clouds
474,Asfi,MA,32.2994,-9.2372,65.93,69,2,19.8,clear sky
475,Ternate,ID,0.8,127.4,82.45,78,25,4.59,scattered clouds
476,Conde,BR,-7.2597,-34.9075,80.06,89,75,11.5,broken clouds
477,Alice Springs,AU,-23.7,133.8833,69.35,43,100,9.22,overcast clouds
478,Alzamay,RU,55.5562,98.6644,61.41,55,100,11.03,overcast clouds
479,Shambu,ET,9.5667,37.1,65.16,53,70,5.3,broken clouds
480,Gizo,SB,-8.103,156.8419,81.91,75,50,3.31,light rain
481,Camalu,MX,30.85,-116.0667,57.88,85,58,0.98,broken clouds
482,San Lorenzo,PY,-25.3333,-57.5333,68.94,100,100,8.05,overcast clouds
483,Jambi,ID,-1.6,103.6167,76.48,96,100,3.36,overcast clouds
484,Kayanza,BI,-3.0667,29.6667,65.32,89,100,1.21,moderate rain
485,Cabedelo,BR,-6.9811,-34.8339,81.27,77,73,14.5,broken clouds
486,Lavrentiya,RU,65.5833,-171.0,3.38,92,35,7.74,scattered clouds
487,Molepolole,BW,-24.4066,25.4951,71.74,34,0,8.23,clear sky
488,Isla Vista,US,34.4133,-119.861,59.34,68,20,0.0,haze
489,Carroll,US,39.5501,-77.0164,62.87,87,100,3.44,mist
490,Srednekolymsk,RU,67.45,153.6833,30.09,88,100,1.9,overcast clouds
491,Plettenberg Bay,ZA,-34.0527,23.3716,68.2,65,100,7.0,overcast clouds
492,Guerrero Negro,MX,27.9769,-114.0611,58.51,81,9,11.3,clear sky
493,Kaeo,NZ,-35.1,173.7833,58.66,86,99,4.88,overcast clouds
494,Klaksvik,FO,62.2266,-6.589,41.92,63,95,13.56,overcast clouds
495,Mercedes,AR,-34.6515,-59.4307,55.63,65,97,8.84,overcast clouds
496,Ancud,CL,-41.8697,-73.8203,49.23,81,11,1.61,few clouds
497,Suraabad,AZ,40.8192,49.4687,59.23,72,94,14.79,overcast clouds
498,Nantucket,US,41.2835,-70.0995,53.71,75,0,12.66,clear sky
499,Shenzhen,CN,22.5455,114.0683,69.75,90,100,9.35,overcast clouds
500,Ponta Delgada,PT,37.7333,-25.6667,65.12,68,75,10.36,broken clouds
501,Pochinki,RU,54.6988,44.8668,53.76,48,99,10.98,overcast clouds
502,Srivardhan,IN,18.0333,73.0167,84.65,79,0,10.25,clear sky
503,Caraballeda,VE,10.6112,-66.8522,88.86,56,0,9.78,clear sky
504,Limon,CR,10.0,-83.0333,76.89,88,75,0.0,broken clouds
505,Bonavista,CA,48.6499,-53.1147,37.63,96,100,10.27,overcast clouds
506,Pitimbu,BR,-7.4706,-34.8086,81.19,76,80,13.09,broken clouds
507,Ahipara,NZ,-35.1667,173.1667,57.96,87,100,6.06,overcast clouds
508,Murgab,TM,37.4966,61.9714,82.27,34,0,13.8,clear sky
509,Tagab,AF,34.855,69.6492,71.33,49,92,5.39,overcast clouds
510,Charters Towers,AU,-20.1,146.2667,68.9,85,24,9.17,few clouds
511,Nishihara,JP,26.1842,127.7558,63.68,86,100,6.91,moderate rain
512,Bardiyah,LY,31.7561,25.0865,73.63,58,94,9.89,overcast clouds
513,Tazovskiy,RU,67.4667,78.7,12.67,92,49,3.04,scattered clouds
514,Tagusao,PH,9.1924,117.8141,80.73,81,100,4.14,overcast clouds
515,Bamnet Narong,TH,15.4992,101.6897,74.08,65,99,13.44,overcast clouds
516,Kletnya,RU,53.3897,33.2171,54.64,72,96,10.25,overcast clouds
517,Kirillov,RU,59.863,38.3813,48.24,62,100,8.72,light rain
518,Iracoubo,GF,5.4802,-53.2011,81.28,76,44,9.98,scattered clouds
519,Tieli,CN,46.95,128.05,45.59,69,100,8.68,overcast clouds
520,Namatanai,PG,-3.6667,152.4333,79.88,82,98,4.03,moderate rain
521,San Vicente,AR,-26.6167,-54.1333,72.5,74,97,4.38,moderate rain
522,Comodoro Rivadavia,AR,-45.8667,-67.5,48.06,71,0,13.8,clear sky
523,Sembe,CG,1.6481,14.5806,81.43,81,81,2.53,moderate rain
524,Yalutorovsk,RU,56.6536,66.3006,46.58,33,63,9.22,broken clouds
525,Daru,PG,-9.0763,143.2092,79.43,86,48,11.88,scattered clouds
526,Asilah,MA,35.465,-6.0348,66.16,71,0,13.89,clear sky
527,Anloga,GH,5.7947,0.8973,85.64,71,21,13.47,few clouds
528,Opuwo,NA,-18.0607,13.84,84.58,22,9,10.4,clear sky
529,Puro,PH,12.4841,123.3827,81.57,77,100,8.01,overcast clouds
530,Tabas,IR,33.5959,56.9244,85.03,21,26,12.24,scattered clouds
531,Pangnirtung,CA,66.1451,-65.7125,24.8,68,100,6.91,light snow
532,Shumskiy,RU,54.8318,99.1328,59.86,47,100,4.92,overcast clouds
533,Kurchum,KZ,48.5722,83.6542,57.52,80,43,5.91,scattered clouds
534,Bogovarovo,RU,58.9785,47.0246,47.64,52,94,6.64,light rain
535,Ridgecrest,US,35.6225,-117.6709,58.68,34,0,12.66,clear sky
536,Matara,LK,5.9485,80.5353,81.9,83,100,9.91,overcast clouds
537,Villeneuve-Sur-Lot,FR,44.5,0.6667,68.72,56,98,4.7,overcast clouds
538,Yulara,AU,-25.2406,130.9889,62.44,67,40,4.61,scattered clouds
539,Bayangol,RU,50.6977,103.4656,53.91,26,87,3.96,overcast clouds
540,Nemuro,JP,43.3236,145.575,39.07,92,2,7.63,clear sky
541,Dalmine,IT,45.6493,9.604,73.02,49,40,6.91,scattered clouds
542,Tilichiki,RU,60.4667,166.1,11.32,97,44,5.93,scattered clouds
543,Kalnibolotskaya,RU,46.0058,40.4568,45.73,93,100,12.33,overcast clouds
544,Xam Nua,LA,20.4197,104.0439,59.86,86,94,2.95,overcast clouds
545,Maraa,BR,-1.8333,-65.3667,80.31,82,88,1.12,overcast clouds
546,Linares,CL,-35.85,-71.6,50.4,75,20,6.51,few clouds
547,Matagami,CA,49.7502,-77.6328,51.91,50,0,11.5,clear sky
548,Ballina,AU,-28.8667,153.5667,62.56,88,40,9.22,scattered clouds
549,Vientiane,LA,17.9667,102.6,73.9,83,90,5.06,overcast clouds
550,Ovalle,CL,-30.5983,-71.2003,64.98,48,0,1.77,clear sky
551,Shitanjing,CN,39.2342,106.3439,57.7,12,0,4.32,clear sky
552,Dawlatabad,AF,36.4141,64.9053,75.16,53,100,6.55,overcast clouds
553,Mosetse,BW,-20.75,26.65,77.13,22,0,14.99,clear sky
554,Sao Gabriel Da Cachoeira,BR,-0.1303,-67.0892,80.4,83,40,2.3,scattered clouds
555,Puerto Penasco,MX,31.3167,-113.5333,69.91,78,0,15.99,clear sky
556,Hokitika,NZ,-42.7167,170.9667,58.68,90,99,6.06,overcast clouds
557,Shizunai,JP,42.3339,142.3669,42.03,86,27,11.95,scattered clouds
558,Wagar,SD,16.1525,36.2032,106.66,11,7,10.67,clear sky
559,Tessalit,ML,20.1986,1.0114,93.07,9,0,13.67,clear sky
560,Elyakhin,IL,32.4079,34.9243,78.08,62,100,13.09,overcast clouds
561,Weiser,US,44.251,-116.9693,46.87,84,58,3.87,broken clouds
562,Amapa,BR,1.0,-52.0,78.42,84,100,3.04,overcast clouds
563,Madaba,JO,31.5833,35.6667,82.56,27,66,3.29,broken clouds
564,Gonaives,HT,19.45,-72.6833,85.26,54,51,1.59,broken clouds
565,Playas,EC,-2.6333,-80.3833,74.34,82,100,4.27,overcast clouds
566,Lubumbashi,CD,-11.6609,27.4794,71.11,63,95,5.91,overcast clouds
567,Foca,TR,38.6703,26.7566,67.84,70,100,0.6,overcast clouds
568,Coquimbo,CL,-29.9533,-71.3436,53.33,93,100,1.14,overcast clouds
569,Kununurra,AU,-15.7667,128.7333,73.38,78,0,0.0,clear sky
570,Gunjur,GM,13.2019,-16.7339,86.07,54,54,8.05,broken clouds
571,Rennes,FR,48.1667,-1.6667,64.44,48,100,8.05,overcast clouds
572,Maple Creek,CA,49.9168,-109.4848,46.45,57,61,19.57,broken clouds
573,Singaraja,ID,-8.112,115.0882,81.1,82,100,1.83,overcast clouds
574,Katangli,RU,51.7102,143.2326,31.19,97,100,11.77,overcast clouds
575,Davila,PH,18.4726,120.5763,81.3,78,98,8.5,overcast clouds
576,Hobyo,SO,5.3505,48.5268,87.44,65,100,17.81,light rain
577,Bubaque,GW,11.2833,-15.8333,78.24,68,95,10.0,overcast clouds
578,Honningsvag,NO,70.9821,25.9704,29.95,80,100,26.46,light snow
579,Igrim,RU,63.1906,64.4162,33.8,83,99,4.12,light snow
580,Luocheng,CN,29.3848,104.0286,62.55,58,100,1.99,overcast clouds
581,Sambava,MG,-14.2667,50.1667,80.15,73,10,9.53,clear sky
582,Kikwit,CD,-5.041,18.8162,85.75,55,59,3.58,broken clouds
583,Udachnyy,RU,66.4167,112.4,20.17,91,29,7.94,scattered clouds
584,Shache,CN,38.4167,77.2406,75.07,12,81,9.06,broken clouds
585,Nakamura,JP,32.9833,132.9333,50.99,72,39,4.14,scattered clouds
586,Char Bhadrasan,BD,23.3167,90.2167,76.57,81,100,19.06,overcast clouds
587,Ternova,UA,50.1849,36.6757,57.0,44,69,1.92,broken clouds
588,Kutum,SD,14.2,24.6667,97.81,6,3,16.75,clear sky
589,Los Negros,BO,-17.7333,-63.4333,78.35,74,96,2.17,overcast clouds
590,Tabory,RU,58.5198,64.5495,43.57,43,89,4.38,overcast clouds
591,Necochea,AR,-38.5473,-58.7368,52.66,53,100,5.41,overcast clouds
592,Rusii Munti,RO,46.9167,24.85,64.29,59,54,1.48,broken clouds
593,Xacmaz,AZ,41.4635,48.806,62.46,57,70,10.47,broken clouds
594,Abu Samrah,SY,35.3029,37.1841,80.67,29,71,15.75,broken clouds
595,Diffa,NE,13.3154,12.6113,108.84,10,53,4.76,broken clouds
596,Codrington,AU,-38.2667,141.9667,56.59,73,41,9.1,scattered clouds
597,Krasnokamensk,RU,50.0979,118.0369,56.41,51,100,3.89,overcast clouds
598,Ngunguru,NZ,-35.6167,174.5,62.24,79,90,7.47,overcast clouds
599,Acopiara,BR,-6.0953,-39.4525,87.62,47,18,7.07,few clouds
600,Champerico,GT,14.3,-91.9167,81.14,75,100,5.17,overcast clouds
601,Doba,TD,8.65,16.85,106.03,16,83,3.85,broken clouds
602,Dutlwe,BW,-23.9833,23.9,75.96,27,0,9.53,clear sky
603,Marystown,CA,47.1666,-55.1483,42.1,87,100,8.5,overcast clouds
604,Raudeberg,NO,61.9875,5.1352,43.86,83,98,15.3,overcast clouds
605,Turukhansk,RU,65.8167,87.9833,30.36,86,96,7.58,overcast clouds
606,Junction City,US,39.0286,-96.8314,52.39,79,100,17.27,light intensity drizzle
607,Spasskoye,RU,44.6108,132.7969,43.36,85,100,6.76,moderate rain
608,Gorodishche,RU,48.8045,44.4744,54.48,26,0,11.18,clear sky
609,Kulu,TR,39.0951,33.0799,64.09,36,100,4.81,overcast clouds
610,Saint-Pierre,RE,-21.3393,55.4781,80.28,73,0,9.22,clear sky
611,Slave Lake,CA,55.2834,-114.769,35.58,93,100,5.75,overcast clouds
612,Boo,SE,59.3333,18.2833,59.99,41,0,20.71,clear sky
613,Gambela,ET,8.25,34.5833,75.43,85,83,5.14,heavy intensity rain
614,Anju,KP,39.6178,125.6647,48.04,62,4,4.63,clear sky
615,Fasa,IR,28.9383,53.6482,85.24,6,0,19.57,sand
616,Sompeta,IN,18.9333,84.6,82.99,68,100,11.68,overcast clouds
617,Sabha,LY,27.0377,14.4283,80.42,18,39,9.06,scattered clouds
618,Arkhara,RU,49.4212,130.0842,45.45,71,100,2.35,overcast clouds
619,Gat,IL,31.61,34.7642,83.39,44,100,11.81,overcast clouds
620,Awjilah,LY,29.1081,21.2869,79.56,35,0,29.08,clear sky
621,Yanam,IN,16.7333,82.2167,81.57,85,12,4.76,few clouds
622,Manokwari,ID,-0.8667,134.0833,79.57,80,98,2.53,overcast clouds
623,Salvador,SV,13.8333,-88.9167,78.04,75,98,1.59,overcast clouds
624,Ust-Kut,RU,56.7938,105.7672,36.01,82,100,7.56,overcast clouds
625,Ossora,RU,59.2353,163.0719,19.27,95,51,4.65,broken clouds
626,Nizhniy Baskunchak,RU,48.2198,46.8311,55.18,30,100,8.3,overcast clouds
627,Chicama,PE,-7.8447,-79.1469,61.34,70,54,5.32,broken clouds
628,Tabuk,PH,17.4189,121.4443,75.69,89,100,3.24,overcast clouds
629,Jumla,NP,29.2747,82.1838,58.12,78,94,4.12,overcast clouds
630,Mutata,CO,7.2441,-76.4356,82.65,78,82,1.61,broken clouds
631,Bien Hoa,VN,10.95,106.8167,82.38,83,100,6.22,overcast clouds
632,Alampur,IN,15.8833,78.15,101.86,17,99,9.75,overcast clouds
633,Saint-Louis,SN,16.3333,-15.0,105.12,8,100,7.67,overcast clouds
634,Mvuma,ZW,-19.2792,30.5283,61.97,60,86,11.95,overcast clouds
635,Tahe,CN,52.3333,124.7333,37.83,78,100,8.75,overcast clouds
636,Rundu,NA,-17.9333,19.7667,79.63,29,96,11.99,overcast clouds
637,Jinchang,CN,38.4953,102.1739,60.15,15,0,4.18,clear sky
638,New Iberia,US,30.0035,-91.8187,76.98,94,20,8.05,mist
639,Olavarria,AR,-36.8927,-60.3225,48.02,70,100,6.33,overcast clouds
640,Hami,CN,42.8,93.45,72.01,7,6,5.84,clear sky
641,Marrakesh,MA,31.6315,-8.0083,78.87,34,0,5.75,clear sky
642,Guozhen,CN,34.3659,107.359,60.44,31,0,3.85,clear sky
643,Kaseda,JP,31.4167,130.3167,62.24,63,89,11.45,overcast clouds
644,Mubi,NG,10.2676,13.2644,100.76,22,63,6.98,broken clouds
645,Tautira,PF,-17.7333,-149.15,79.29,76,89,4.36,overcast clouds
646,Sungaipenuh,ID,-2.0833,101.3833,66.15,96,94,1.05,overcast clouds
647,Inirida,CO,3.8653,-67.9239,85.28,64,55,2.37,broken clouds
648,Vigrestad,NO,58.5667,5.7,49.59,87,100,18.79,overcast clouds
649,Fairhope,US,30.523,-87.9033,77.76,70,40,8.05,scattered clouds
650,Emerald,AU,-23.5333,148.1667,68.14,83,40,5.75,scattered clouds
651,Faanui,PF,-16.4833,-151.75,80.76,74,100,8.41,overcast clouds
652,Montevideo,UY,-34.8335,-56.1674,57.81,56,75,13.8,broken clouds
653,General Roca,AR,-39.0333,-67.5833,53.78,47,11,3.18,few clouds
654,Maniitsoq,GL,65.4167,-52.9,27.27,74,98,2.95,overcast clouds
655,Pontian Kecil,MY,1.4801,103.3899,84.52,82,99,3.56,overcast clouds
656,Cururupu,BR,-1.8283,-44.8683,86.32,63,100,5.57,heavy intensity rain
657,Kummersbruck,DE,49.4192,11.8883,66.51,61,55,4.85,broken clouds
658,Lianzhou,CN,24.7811,112.3825,58.73,81,61,2.8,broken clouds
659,Leonidovo,RU,49.2833,142.8667,31.28,99,100,9.46,snow
660,Moose Factory,CA,51.2585,-80.6094,50.0,66,100,6.91,overcast clouds
661,Staryy Nadym,RU,65.6118,72.6842,26.67,82,100,4.81,overcast clouds
662,Sechura,PE,-5.5569,-80.8222,71.33,69,99,9.15,overcast clouds
663,Chara,RU,56.9064,118.2631,25.63,78,95,6.93,light snow
664,Kamenka,RU,51.3223,42.7678,54.48,33,84,3.85,broken clouds
665,Zharkent,KZ,44.1628,80.0,81.36,21,84,7.29,broken clouds
666,Murray Bridge,AU,-35.1167,139.2667,59.13,66,0,4.09,clear sky
667,Podor,MR,16.6527,-14.9587,105.06,8,72,6.76,broken clouds
668,Bethanien,NA,-26.502,17.1583,86.32,13,0,9.44,clear sky
669,Manado,ID,1.487,124.8455,81.37,89,40,2.3,scattered clouds
670,Charleville-Mezieres,FR,49.7667,4.7167,63.77,58,98,10.02,overcast clouds
671,Barranca,PE,-10.75,-77.7667,65.59,81,100,5.82,overcast clouds
672,Santa Maria,BR,-29.6842,-53.8069,56.5,94,100,9.22,moderate rain
673,Verkhnevilyuysk,RU,63.4453,120.3167,25.5,81,31,7.16,scattered clouds
674,Nokaneng,BW,-19.6667,22.2667,80.73,27,99,9.69,overcast clouds
675,Oranjemund,NA,-28.55,16.4333,84.13,24,0,5.7,clear sky
676,Seoul,KR,37.5683,126.9778,54.84,54,0,2.3,clear sky
677,Shrewsbury,GB,52.7101,-2.7521,60.67,77,75,4.61,broken clouds
678,Jijiga,ET,9.35,42.8,79.5,37,51,1.68,broken clouds
679,Isla Mujeres,MX,21.2311,-86.731,82.45,68,6,12.82,clear sky
680,Kaoma,ZM,-14.7833,24.8,76.23,41,3,8.72,clear sky
681,Manacapuru,BR,-3.2997,-60.6206,74.16,94,100,4.47,overcast clouds
682,Ayorou,NE,14.7308,0.9174,107.17,7,7,7.0,clear sky
683,Mildura,AU,-34.2,142.15,53.56,87,0,3.44,clear sky
